{"type": "FeatureCollection", "features": [{"type": "Feature", "geometry": {"type": "Point", "coordinates": [139.6503, 35.6762]}, "properties": {"name": "Tokyo", "country": "Japan", "population": 37400000, "density": 6158, "risk_tier": "Very High"}}, {"type": "Feature", "geometry": {"type": "Point", "coordinates": [77.1025, 28.7041]}, "properties": {"name": "Delhi NCR", "country": "India", "population": 32900000, "density": 11312, "risk_tier": "Very High"}}, {"type": "Feature", "geometry": {"type": "Point", "coordinates": [121.4737, 31.2304]}, "properties": {"name": "Shanghai", "country": "China", "population": 28500000, "density": 3630, "risk_tier": "Very High"}}, {"type": "Feature", "geometry": {"type": "Point", "coordinates": [90.4125, 23.8103]}, "properties": {"name": "Dhaka", "country": "Bangladesh", "population": 22800000, "density": 23234, "risk_tier": "Extreme"}}, {"type": "Feature", "geometry": {"type": "Point", "coordinates": [31.2357, 30.0444]}, "properties": {"name": "Cairo", "country": "Egypt", "population": 22000000, "density": 19376, "risk_tier": "Very High"}}, {"type": "Feature", "geometry": {"type": "Point", "coordinates": [-99.1332, 19.4326]}, "properties": {"name": "Mexico City", "country": "Mexico", "population": 21800000, "density": 6000, "risk_tier": "High"}}, {"type": "Feature", "geometry": {"type": "Point", "coordinates": [-46.6396, -23.5558]}, "properties": {"name": "S\u00e3o Paulo", "country": "Brazil", "population": 22400000, "density": 7216, "risk_tier": "Very High"}}, {"type": "Feature", "geometry": {"type": "Point", "coordinates": [72.8777, 19.076]}, "properties": {"name": "Mumbai", "country": "India", "population": 21700000, "density": 20680, "risk_tier": "Extreme"}}, {"type": "Feature", "geometry": {"type": "Point", "coordinates": [116.4074, 39.9042]}, "properties": {"name": "Beijing", "country": "China", "population": 21500000, "density": 1313, "risk_tier": "High"}}, {"type": "Feature", "geometry": {"type": "Point", "coordinates": [-74.006, 40.7128]}, "properties": {"name": "New York", "country": "United States", "population": 18800000, "density": 10431, "risk_tier": "High"}}, {"type": "Feature", "geometry": {"type": "Point", "coordinates": [46.6753, 24.7136]}, "properties": {"name": "Riyadh", "country": "Saudi Arabia", "population": 7700000, "density": 3900, "risk_tier": "High"}}, {"type": "Feature", "geometry": {"type": "Point", "coordinates": [39.1728, 21.5433]}, "properties": {"name": "Jeddah", "country": "Saudi Arabia", "population": 4700000, "density": 2800, "risk_tier": "High"}}, {"type": "Feature", "geometry": {"type": "Point", "coordinates": [3.3792, 6.5244]}, "properties": {"name": "Lagos", "country": "Nigeria", "population": 16000000, "density": 6871, "risk_tier": "Very High"}}, {"type": "Feature", "geometry": {"type": "Point", "coordinates": [15.2663, -4.4419]}, "properties": {"name": "Kinshasa", "country": "DRC", "population": 17100000, "density": 4655, "risk_tier": "Very High"}}, {"type": "Feature", "geometry": {"type": "Point", "coordinates": [-0.1278, 51.5074]}, "properties": {"name": "London", "country": "United Kingdom", "population": 9500000, "density": 5596, "risk_tier": "High"}}, {"type": "Feature", "geometry": {"type": "Point", "coordinates": [106.8456, -6.2088]}, "properties": {"name": "Jakarta", "country": "Indonesia", "population": 11000000, "density": 15342, "risk_tier": "Very High"}}, {"type": "Feature", "geometry": {"type": "Point", "coordinates": [126.978, 37.5665]}, "properties": {"name": "Seoul", "country": "South Korea", "population": 9700000, "density": 16000, "risk_tier": "Very High"}}, {"type": "Feature", "geometry": {"type": "Point", "coordinates": [37.6173, 55.7558]}, "properties": {"name": "Moscow", "country": "Russia", "population": 12500000, "density": 4941, "risk_tier": "High"}}, {"type": "Feature", "geometry": {"type": "Point", "coordinates": [28.9784, 41.0082]}, "properties": {"name": "Istanbul", "country": "Turkey", "population": 15800000, "density": 2965, "risk_tier": "High"}}, {"type": "Feature", "geometry": {"type": "Point", "coordinates": [67.0011, 24.8607]}, "properties": {"name": "Karachi", "country": "Pakistan", "population": 16800000, "density": 6663, "risk_tier": "Very High"}}, {"type": "Feature", "geometry": {"type": "Point", "coordinates": [39.8579, 21.3891]}, "properties": {"name": "Mecca", "country": "Saudi Arabia", "population": 2400000, "density": 4200, "risk_tier": "Very High"}}, {"type": "Feature", "geometry": {"type": "Point", "coordinates": [39.5692, 24.5247]}, "properties": {"name": "Medina", "country": "Saudi Arabia", "population": 1500000, "density": 1800, "risk_tier": "High"}}, {"type": "Feature", "geometry": {"type": "Point", "coordinates": [36.8219, -1.2921]}, "properties": {"name": "Nairobi", "country": "Kenya", "population": 5300000, "density": 4515, "risk_tier": "High"}}, {"type": "Feature", "geometry": {"type": "Point", "coordinates": [100.5018, 13.7563]}, "properties": {"name": "Bangkok", "country": "Thailand", "population": 10700000, "density": 3500, "risk_tier": "High"}}, {"type": "Feature", "geometry": {"type": "Point", "coordinates": [-77.0428, -12.0464]}, "properties": {"name": "Lima", "country": "Peru", "population": 11000000, "density": 3515, "risk_tier": "High"}}, {"type": "Feature", "geometry": {"type": "Point", "coordinates": [2.3522, 48.8566]}, "properties": {"name": "Paris", "country": "France", "population": 11000000, "density": 20545, "risk_tier": "High"}}, {"type": "Feature", "geometry": {"type": "Point", "coordinates": [50.0888, 26.4207]}, "properties": {"name": "Dammam", "country": "Saudi Arabia", "population": 1300000, "density": 2200, "risk_tier": "Moderate"}}, {"type": "Feature", "geometry": {"type": "Point", "coordinates": [38.7636, 9.0054]}, "properties": {"name": "Addis Ababa", "country": "Ethiopia", "population": 5500000, "density": 5165, "risk_tier": "High"}}, {"type": "Feature", "geometry": {"type": "Point", "coordinates": [28.0473, -26.2041]}, "properties": {"name": "Johannesburg", "country": "South Africa", "population": 6000000, "density": 2696, "risk_tier": "High"}}, {"type": "Feature", "geometry": {"type": "Point", "coordinates": [120.9842, 14.5995]}, "properties": {"name": "Manila", "country": "Philippines", "population": 14400000, "density": 42857, "risk_tier": "Extreme"}}]}