{"type":"FeatureCollection","features":[{"type":"Feature","geometry":{"type":"Point","coordinates":[15.3125,-4.3217]},"properties":{"name":"Mpox (Clade Ib)","country":"DR Congo","date":"2024-present","cases":32000,"severity":"PHEIC","pathogen":"Monkeypox virus"}},{"type":"Feature","geometry":{"type":"Point","coordinates":[29.3599,-3.3614]},"properties":{"name":"Mpox (Clade Ib)","country":"Burundi","date":"2024-present","cases":1800,"severity":"High","pathogen":"Monkeypox virus"}},{"type":"Feature","geometry":{"type":"Point","coordinates":[32.5825,0.3476]},"properties":{"name":"Mpox (Clade Ib)","country":"Uganda","date":"2024-present","cases":820,"severity":"High","pathogen":"Monkeypox virus"}},{"type":"Feature","geometry":{"type":"Point","coordinates":[29.8739,-1.9403]},"properties":{"name":"Marburg Virus Disease","country":"Rwanda","date":"2024-10","cases":66,"severity":"High","pathogen":"Marburg virus"}},{"type":"Feature","geometry":{"type":"Point","coordinates":[34.8888,-6.369]},"properties":{"name":"Marburg Virus Disease","country":"Tanzania","date":"2025-01","cases":18,"severity":"High","pathogen":"Marburg virus"}},{"type":"Feature","geometry":{"type":"Point","coordinates":[-98.5795,39.8283]},"properties":{"name":"Avian Influenza A(H5N1)","country":"United States","date":"2024-present","cases":67,"severity":"High","pathogen":"H5N1"}},{"type":"Feature","geometry":{"type":"Point","coordinates":[104.991,12.5657]},"properties":{"name":"Avian Influenza A(H5N1)","country":"Cambodia","date":"2025-02","cases":4,"severity":"High","pathogen":"H5N1"}},{"type":"Feature","geometry":{"type":"Point","coordinates":[35.5296,-18.6657]},"properties":{"name":"Cholera","country":"Mozambique","date":"2025-present","cases":18500,"severity":"High","pathogen":"Vibrio cholerae"}},{"type":"Feature","geometry":{"type":"Point","coordinates":[67.71,33.9391]},"properties":{"name":"Cholera","country":"Afghanistan","date":"2024-present","cases":125000,"severity":"High","pathogen":"Vibrio cholerae"}},{"type":"Feature","geometry":{"type":"Point","coordinates":[8.6753,9.082]},"properties":{"name":"Cholera","country":"Nigeria","date":"2024-present","cases":12400,"severity":"High","pathogen":"Vibrio cholerae"}},{"type":"Feature","geometry":{"type":"Point","coordinates":[-51.9253,-14.235]},"properties":{"name":"Dengue","country":"Brazil","date":"2025-present","cases":850000,"severity":"High","pathogen":"Dengue virus"}},{"type":"Feature","geometry":{"type":"Point","coordinates":[-58.3816,-34.6037]},"properties":{"name":"Dengue","country":"Argentina","date":"2025-present","cases":185000,"severity":"Medium","pathogen":"Dengue virus"}},{"type":"Feature","geometry":{"type":"Point","coordinates":[90.3563,23.685]},"properties":{"name":"Dengue","country":"Bangladesh","date":"2024-present","cases":28000,"severity":"Medium","pathogen":"Dengue virus"}},{"type":"Feature","geometry":{"type":"Point","coordinates":[-60.0217,-3.119]},"properties":{"name":"Oropouche Fever","country":"Brazil","date":"2024-present","cases":10200,"severity":"Medium","pathogen":"Oropouche virus"}},{"type":"Feature","geometry":{"type":"Point","coordinates":[-77.7812,21.5218]},"properties":{"name":"Oropouche Fever","country":"Cuba","date":"2024-09","cases":510,"severity":"Medium","pathogen":"Oropouche virus"}},{"type":"Feature","geometry":{"type":"Point","coordinates":[32.2903,1.3733]},"properties":{"name":"Ebola Virus Disease","country":"Uganda","date":"2025-02","cases":12,"severity":"High","pathogen":"Sudan ebolavirus"}},{"type":"Feature","geometry":{"type":"Point","coordinates":[48.5164,15.5527]},"properties":{"name":"Measles","country":"Yemen","date":"2024-present","cases":22000,"severity":"High","pathogen":"Measles virus"}},{"type":"Feature","geometry":{"type":"Point","coordinates":[-9.6966,9.9456]},"properties":{"name":"Diphtheria","country":"Guinea","date":"2025-01","cases":320,"severity":"Medium","pathogen":"Corynebacterium diphtheriae"}},{"type":"Feature","geometry":{"type":"Point","coordinates":[3.357,7.4951]},"properties":{"name":"Lassa Fever","country":"Nigeria","date":"2025-present","cases":1200,"severity":"High","pathogen":"Lassa virus"}},{"type":"Feature","geometry":{"type":"Point","coordinates":[31.307,6.877]},"properties":{"name":"Yellow Fever","country":"South Sudan","date":"2024-12","cases":340,"severity":"Medium","pathogen":"Yellow Fever virus"}},{"type":"Feature","geometry":{"type":"Point","coordinates":[76.2711,10.8505]},"properties":{"name":"Nipah Virus","country":"India (Kerala)","date":"2024-09","cases":6,"severity":"High","pathogen":"Nipah virus"}},{"type":"Feature","geometry":{"type":"Point","coordinates":[45.0792,23.8859]},"properties":{"name":"MERS-CoV","country":"Saudi Arabia","date":"2024-present","cases":8,"severity":"Medium","pathogen":"MERS-CoV"}},{"type":"Feature","geometry":{"type":"Point","coordinates":[46.8691,-18.7669]},"properties":{"name":"Plague","country":"Madagascar","date":"2024-11","cases":185,"severity":"High","pathogen":"Yersinia pestis"}},{"type":"Feature","geometry":{"type":"Point","coordinates":[37.9062,-0.0236]},"properties":{"name":"Rift Valley Fever","country":"Kenya","date":"2025-01","cases":95,"severity":"Medium","pathogen":"RVF virus"}}]}