{"type":"FeatureCollection","features":[{"type":"Feature","geometry":{"type":"Point","coordinates":[73.27,33.69]},"properties":{"name":"PS01 Nilore","station_type":"Primary Seismic","country":"Pakistan"}},{"type":"Feature","geometry":{"type":"Point","coordinates":[134.33,-19.93]},"properties":{"name":"PS02 Warramunga","station_type":"Primary Seismic","country":"Australia"}},{"type":"Feature","geometry":{"type":"Point","coordinates":[138.21,36.54]},"properties":{"name":"PS05 Mt. Matsushiro","station_type":"Primary Seismic","country":"Japan"}},{"type":"Feature","geometry":{"type":"Point","coordinates":[133.91,-23.66]},"properties":{"name":"PS07 Alice Springs","station_type":"Primary Seismic","country":"Australia"}},{"type":"Feature","geometry":{"type":"Point","coordinates":[-103.67,29.33]},"properties":{"name":"PS10 Lajitas","station_type":"Primary Seismic","country":"United States"}},{"type":"Feature","geometry":{"type":"Point","coordinates":[-114.59,62.49]},"properties":{"name":"PS11 Yellowknife","station_type":"Primary Seismic","country":"Canada"}},{"type":"Feature","geometry":{"type":"Point","coordinates":[106.95,47.81]},"properties":{"name":"PS16 Songino","station_type":"Primary Seismic","country":"Mongolia"}},{"type":"Feature","geometry":{"type":"Point","coordinates":[1.68,13.12]},"properties":{"name":"PS19 Torodi","station_type":"Primary Seismic","country":"Niger"}},{"type":"Feature","geometry":{"type":"Point","coordinates":[-31.12,39.41]},"properties":{"name":"PS21 Flores Island","station_type":"Primary Seismic","country":"Portugal"}},{"type":"Feature","geometry":{"type":"Point","coordinates":[158.68,53.02]},"properties":{"name":"PS23 Petropavlovsk","station_type":"Primary Seismic","country":"Russia"}},{"type":"Feature","geometry":{"type":"Point","coordinates":[88.12,69.34]},"properties":{"name":"PS25 Norilsk","station_type":"Primary Seismic","country":"Russia"}},{"type":"Feature","geometry":{"type":"Point","coordinates":[28.06,-23.54]},"properties":{"name":"PS27 Malin","station_type":"Primary Seismic","country":"South Africa"}},{"type":"Feature","geometry":{"type":"Point","coordinates":[80.14,7.55]},"properties":{"name":"PS31 Riyawala","station_type":"Primary Seismic","country":"Sri Lanka"}},{"type":"Feature","geometry":{"type":"Point","coordinates":[112.85,59.63]},"properties":{"name":"PS36 Peleduy","station_type":"Primary Seismic","country":"Russia"}},{"type":"Feature","geometry":{"type":"Point","coordinates":[121.54,25.06]},"properties":{"name":"PS41 New Taipei","station_type":"Primary Seismic","country":"Taiwan"}},{"type":"Feature","geometry":{"type":"Point","coordinates":[9.32,35.81]},"properties":{"name":"PS43 Kesra","station_type":"Primary Seismic","country":"Tunisia"}},{"type":"Feature","geometry":{"type":"Point","coordinates":[78.63,50.72]},"properties":{"name":"PS47 Kurchatov","station_type":"Primary Seismic","country":"Kazakhstan"}},{"type":"Feature","geometry":{"type":"Point","coordinates":[115.14,-34.37]},"properties":{"name":"HA01 Cape Leeuwin","station_type":"Hydroacoustic","country":"Australia"}},{"type":"Feature","geometry":{"type":"Point","coordinates":[51.99,-46.42]},"properties":{"name":"HA04 Crozet Islands","station_type":"Hydroacoustic","country":"France"}},{"type":"Feature","geometry":{"type":"Point","coordinates":[72.39,-7.31]},"properties":{"name":"HA08 Diego Garcia","station_type":"Hydroacoustic","country":"United Kingdom"}},{"type":"Feature","geometry":{"type":"Point","coordinates":[-14.38,-7.93]},"properties":{"name":"HA10 Ascension Island","station_type":"Hydroacoustic","country":"United Kingdom"}},{"type":"Feature","geometry":{"type":"Point","coordinates":[166.61,19.28]},"properties":{"name":"HA11 Wake Island","station_type":"Hydroacoustic","country":"United States"}},{"type":"Feature","geometry":{"type":"Point","coordinates":[167.32,-77.52]},"properties":{"name":"IS05 Windless Bight","station_type":"Infrasound","country":"Antarctica (US)"}},{"type":"Feature","geometry":{"type":"Point","coordinates":[134.33,-19.93]},"properties":{"name":"IS07 Warramunga","station_type":"Infrasound","country":"Australia"}},{"type":"Feature","geometry":{"type":"Point","coordinates":[-96.01,50.2]},"properties":{"name":"IS10 Lac du Bonnet","station_type":"Infrasound","country":"Canada"}},{"type":"Feature","geometry":{"type":"Point","coordinates":[-78.8,-33.65]},"properties":{"name":"IS14 Juan Fernandez","station_type":"Infrasound","country":"Chile"}},{"type":"Feature","geometry":{"type":"Point","coordinates":[-4.86,6.67]},"properties":{"name":"IS17 Ivory Coast","station_type":"Infrasound","country":"C\u00f4te d'Ivoire"}},{"type":"Feature","geometry":{"type":"Point","coordinates":[13.71,48.85]},"properties":{"name":"IS22 Freyung","station_type":"Infrasound","country":"Germany"}},{"type":"Feature","geometry":{"type":"Point","coordinates":[13.71,48.85]},"properties":{"name":"IS26 Bavarian Forest","station_type":"Infrasound","country":"Germany"}},{"type":"Feature","geometry":{"type":"Point","coordinates":[-8.27,-70.65]},"properties":{"name":"IS27 Neumayer","station_type":"Infrasound","country":"Antarctica (DE)"}},{"type":"Feature","geometry":{"type":"Point","coordinates":[17.58,-19.19]},"properties":{"name":"IS35 Tsumeb","station_type":"Infrasound","country":"Namibia"}},{"type":"Feature","geometry":{"type":"Point","coordinates":[173.28,-35.07]},"properties":{"name":"IS48 Kaitaia","station_type":"Infrasound","country":"New Zealand"}},{"type":"Feature","geometry":{"type":"Point","coordinates":[-147.86,64.87]},"properties":{"name":"IS53 Fairbanks","station_type":"Infrasound","country":"United States"}},{"type":"Feature","geometry":{"type":"Point","coordinates":[-116.45,33.61]},"properties":{"name":"IS57 Pi\u00f1on Flat","station_type":"Infrasound","country":"United States"}},{"type":"Feature","geometry":{"type":"Point","coordinates":[-58.51,-34.56]},"properties":{"name":"RN01 Buenos Aires","station_type":"Radionuclide","country":"Argentina"}},{"type":"Feature","geometry":{"type":"Point","coordinates":[144.95,-37.69]},"properties":{"name":"RN04 Melbourne","station_type":"Radionuclide","country":"Australia"}},{"type":"Feature","geometry":{"type":"Point","coordinates":[116.4,39.82]},"properties":{"name":"RN08 Beijing","station_type":"Radionuclide","country":"China"}},{"type":"Feature","geometry":{"type":"Point","coordinates":[7.84,47.9]},"properties":{"name":"RN11 Freiburg","station_type":"Radionuclide","country":"Germany"}},{"type":"Feature","geometry":{"type":"Point","coordinates":[-21.82,64.13]},"properties":{"name":"RN14 Reykjavik","station_type":"Radionuclide","country":"Iceland"}},{"type":"Feature","geometry":{"type":"Point","coordinates":[139.02,36.32]},"properties":{"name":"RN16 Takasaki","station_type":"Radionuclide","country":"Japan"}},{"type":"Feature","geometry":{"type":"Point","coordinates":[36.81,-1.27]},"properties":{"name":"RN22 Nairobi","station_type":"Radionuclide","country":"Kenya"}},{"type":"Feature","geometry":{"type":"Point","coordinates":[-15.98,18.05]},"properties":{"name":"RN33 Nouakchott","station_type":"Radionuclide","country":"Mauritania"}},{"type":"Feature","geometry":{"type":"Point","coordinates":[173.28,-35.07]},"properties":{"name":"RN38 Kaitaia","station_type":"Radionuclide","country":"New Zealand"}},{"type":"Feature","geometry":{"type":"Point","coordinates":[15.4,78.2]},"properties":{"name":"RN46 Spitsbergen","station_type":"Radionuclide","country":"Norway"}},{"type":"Feature","geometry":{"type":"Point","coordinates":[-176.48,-43.83]},"properties":{"name":"RN49 Chatham Island","station_type":"Radionuclide","country":"New Zealand"}},{"type":"Feature","geometry":{"type":"Point","coordinates":[106.91,47.89]},"properties":{"name":"RN58 Ulaanbaatar","station_type":"Radionuclide","country":"Mongolia"}},{"type":"Feature","geometry":{"type":"Point","coordinates":[-12.31,-37.07]},"properties":{"name":"RN61 Tristan da Cunha","station_type":"Radionuclide","country":"United Kingdom"}},{"type":"Feature","geometry":{"type":"Point","coordinates":[18.02,59.35]},"properties":{"name":"RN63 Stockholm","station_type":"Radionuclide","country":"Sweden"}},{"type":"Feature","geometry":{"type":"Point","coordinates":[-121.37,38.58]},"properties":{"name":"RN70 Sacramento","station_type":"Radionuclide","country":"United States"}},{"type":"Feature","geometry":{"type":"Point","coordinates":[-160.47,55.34]},"properties":{"name":"RN71 Sand Point","station_type":"Radionuclide","country":"United States"}},{"type":"Feature","geometry":{"type":"Point","coordinates":[-80.61,28.08]},"properties":{"name":"RN72 Melbourne FL","station_type":"Radionuclide","country":"United States"}},{"type":"Feature","geometry":{"type":"Point","coordinates":[-78.48,38.03]},"properties":{"name":"RN75 Charlottesville","station_type":"Radionuclide","country":"United States"}},{"type":"Feature","geometry":{"type":"Point","coordinates":[7.91,47.91]},"properties":{"name":"RN79 Schauinsland","station_type":"Radionuclide","country":"Germany"}},{"type":"Feature","geometry":{"type":"Point","coordinates":[-149.57,-17.58]},"properties":{"name":"RN80 Tahiti","station_type":"Radionuclide","country":"France (Pacific)"}}]}