{"type": "FeatureCollection", "features": [{"type": "Feature", "geometry": {"type": "Point", "coordinates": [-155.5763, 19.5362]}, "properties": {"name": "Mauna Loa Observatory", "city": "Hawaii", "country": "United States", "type": "Air Quality", "network": "NOAA GML", "parameter": "CO2, O3"}}, {"type": "Feature", "geometry": {"type": "Point", "coordinates": [144.6894, -40.6833]}, "properties": {"name": "Cape Grim Station", "city": "Tasmania", "country": "Australia", "type": "Air Quality", "network": "CSIRO", "parameter": "CO2, CH4, N2O"}}, {"type": "Feature", "geometry": {"type": "Point", "coordinates": [-9.9039, 53.3263]}, "properties": {"name": "Mace Head Observatory", "city": "Galway", "country": "Ireland", "type": "Air Quality", "network": "WMO GAW", "parameter": "GHG, O3, aerosols"}}, {"type": "Feature", "geometry": {"type": "Point", "coordinates": [7.9854, 46.5475]}, "properties": {"name": "Jungfraujoch Station", "city": "Bernese Alps", "country": "Switzerland", "type": "Air Quality", "network": "WMO GAW", "parameter": "O3, aerosols, radiation"}}, {"type": "Feature", "geometry": {"type": "Point", "coordinates": [-16.4993, 28.3093]}, "properties": {"name": "Iza\u00f1a Observatory", "city": "Tenerife", "country": "Spain", "type": "Air Quality", "network": "AEMET", "parameter": "CO2, O3, UV"}}, {"type": "Feature", "geometry": {"type": "Point", "coordinates": [-62.3415, 82.4991]}, "properties": {"name": "Alert Station", "city": "Nunavut", "country": "Canada", "type": "Air Quality", "network": "Environment Canada", "parameter": "Arctic GHG, O3"}}, {"type": "Feature", "geometry": {"type": "Point", "coordinates": [-156.6114, 71.323]}, "properties": {"name": "Barrow Observatory", "city": "Utqiagvik", "country": "United States", "type": "Air Quality", "network": "NOAA GML", "parameter": "Arctic CO2, CH4"}}, {"type": "Feature", "geometry": {"type": "Point", "coordinates": [37.2974, -0.0622]}, "properties": {"name": "Mt. Kenya GAW Station", "city": "Mt. Kenya", "country": "Kenya", "type": "Air Quality", "network": "WMO GAW", "parameter": "GHG, O3"}}, {"type": "Feature", "geometry": {"type": "Point", "coordinates": [116.3286, 39.9759]}, "properties": {"name": "Zhongguancun AQ", "city": "Beijing", "country": "China", "type": "Air Quality", "network": "China MEE", "parameter": "PM2.5, PM10, SO2, NO2"}}, {"type": "Feature", "geometry": {"type": "Point", "coordinates": [77.225, 28.6353]}, "properties": {"name": "Central Pollution Board - Delhi", "city": "New Delhi", "country": "India", "type": "Air Quality", "network": "CPCB", "parameter": "PM2.5, PM10, AQI"}}, {"type": "Feature", "geometry": {"type": "Point", "coordinates": [7.8421, 47.999]}, "properties": {"name": "CTBTO RadNet - Freiburg", "city": "Freiburg", "country": "Germany", "type": "Radiation", "network": "BfS RadNet", "parameter": "Gamma dose rate"}}, {"type": "Feature", "geometry": {"type": "Point", "coordinates": [144.9631, -37.8136]}, "properties": {"name": "ARPANSA - Melbourne", "city": "Melbourne", "country": "Australia", "type": "Radiation", "network": "ARPANSA", "parameter": "Environmental radiation"}}, {"type": "Feature", "geometry": {"type": "Point", "coordinates": [127.3845, 36.3504]}, "properties": {"name": "KAERI Radiation Monitor", "city": "Daejeon", "country": "South Korea", "type": "Radiation", "network": "KAERI", "parameter": "Ambient gamma"}}, {"type": "Feature", "geometry": {"type": "Point", "coordinates": [30.2219, 51.2763]}, "properties": {"name": "Chernobyl Exclusion Zone", "city": "Chernobyl", "country": "Ukraine", "type": "Radiation", "network": "SNRIU", "parameter": "Gamma, Cs-137"}}, {"type": "Feature", "geometry": {"type": "Point", "coordinates": [140.4678, 37.75]}, "properties": {"name": "Fukushima Monitoring Post", "city": "Fukushima", "country": "Japan", "type": "Radiation", "network": "NRA Japan", "parameter": "Gamma dose rate"}}, {"type": "Feature", "geometry": {"type": "Point", "coordinates": [-84.3277, 33.7927]}, "properties": {"name": "NWSS Hub - CDC", "city": "Atlanta", "country": "United States", "type": "Wastewater", "network": "NWSS", "parameter": "SARS-CoV-2 RNA"}}, {"type": "Feature", "geometry": {"type": "Point", "coordinates": [5.0881, 52.0286]}, "properties": {"name": "KWR Wastewater Lab", "city": "Nieuwegein", "country": "Netherlands", "type": "Wastewater", "network": "KWR", "parameter": "Enteric viruses, SARS-CoV-2"}}, {"type": "Feature", "geometry": {"type": "Point", "coordinates": [-71.1097, 42.3736]}, "properties": {"name": "Biobot Analytics", "city": "Cambridge MA", "country": "United States", "type": "Wastewater", "network": "Biobot", "parameter": "Pathogen RNA in wastewater"}}, {"type": "Feature", "geometry": {"type": "Point", "coordinates": [46.6753, 24.7136]}, "properties": {"name": "PME Station - Riyadh", "city": "Riyadh", "country": "Saudi Arabia", "type": "Air Quality", "network": "PME", "parameter": "PM10, NO2, SO2, O3"}}, {"type": "Feature", "geometry": {"type": "Point", "coordinates": [39.1728, 21.5433]}, "properties": {"name": "PME Station - Jeddah", "city": "Jeddah", "country": "Saudi Arabia", "type": "Air Quality", "network": "PME", "parameter": "PM10, PM2.5, O3"}}, {"type": "Feature", "geometry": {"type": "Point", "coordinates": [50.0888, 26.4207]}, "properties": {"name": "PME Station - Dammam", "city": "Dammam", "country": "Saudi Arabia", "type": "Air Quality", "network": "PME", "parameter": "PM10, PM2.5, SO2"}}]}